{
"type": "FeatureCollection",
"crs": { "type": "name", "properties": { "name": "urn:ogc:def:crs:OGC:1.3:CRS84" } },
"features": [
{ "type": "Feature", "properties": { "name": "La Plage", "index": 0 }, "geometry": { "type": "Point", "coordinates": [ 0.0957612, 49.4941147 ] } },
{ "type": "Feature", "properties": { "name": "Mare au Clerc", "index": 1 }, "geometry": { "type": "Point", "coordinates": [ 0.1281846, 49.5112462 ] } },
{ "type": "Feature", "properties": { "name": "Saint-Pierre", "index": 2 }, "geometry": { "type": "Point", "coordinates": [ 0.1746991, 49.5121656 ] } },
{ "type": "Feature", "properties": { "name": "Bigne à Fosse", "index": 3 }, "geometry": { "type": "Point", "coordinates": [ 0.1155422, 49.5293644 ] } },
{ "type": "Feature", "properties": { "name": "Queneau", "index": 4 }, "geometry": { "type": "Point", "coordinates": [ 0.1154576, 49.5258542 ] } },
{ "type": "Feature", "properties": { "name": "Frileuse", "index": 5 }, "geometry": { "type": "Point", "coordinates": [ 0.1485497, 49.5092121 ] } },
{ "type": "Feature", "properties": { "name": "Place Jenner B", "index": 6 }, "geometry": { "type": "Point", "coordinates": [ 0.1377794, 49.5085745 ] } },
{ "type": "Feature", "properties": { "name": "Université", "index": 7 }, "geometry": { "type": "Point", "coordinates": [ 0.127048, 49.4961896 ] } },
{ "type": "Feature", "properties": { "name": "Rond-Point", "index": 8 }, "geometry": { "type": "Point", "coordinates": [ 0.1294517, 49.4992676 ] } },
{ "type": "Feature", "properties": { "name": "Hôtel de Ville", "index": 9 }, "geometry": { "type": "Point", "coordinates": [ 0.1082816, 49.4933709 ] } },
{ "type": "Feature", "properties": { "name": "Saint-Roch", "index": 10 }, "geometry": { "type": "Point", "coordinates": [ 0.1013739, 49.4934824 ] } },
{ "type": "Feature", "properties": { "name": "Palais de Justice", "index": 11 }, "geometry": { "type": "Point", "coordinates": [ 0.1179439, 49.4926107 ] } },
{ "type": "Feature", "properties": { "name": "Gares", "index": 12 }, "geometry": { "type": "Point", "coordinates": [ 0.1241161, 49.4924356 ] } },
{ "type": "Feature", "properties": { "name": "Atrium", "index": 13 }, "geometry": { "type": "Point", "coordinates": [ 0.1704871, 49.5159692 ] } },
{ "type": "Feature", "properties": { "name": "Pré Fleuri", "index": 14 }, "geometry": { "type": "Point", "coordinates": [ 0.1801285, 49.5085849 ] } },
{ "type": "Feature", "properties": { "name": "Curie", "index": 15 }, "geometry": { "type": "Point", "coordinates": [ 0.1573296, 49.5092753 ] } },
{ "type": "Feature", "properties": { "name": "Schuman", "index": 16 }, "geometry": { "type": "Point", "coordinates": [ 0.163824, 49.5138493 ] } },
{ "type": "Feature", "properties": { "name": "Verlaine", "index": 17 }, "geometry": { "type": "Point", "coordinates": [ 0.1636486, 49.5093789 ] } },
{ "type": "Feature", "properties": { "name": "Place Jenner A", "index": 18 }, "geometry": { "type": "Point", "coordinates": [ 0.1368242, 49.5085585 ] } },
{ "type": "Feature", "properties": { "name": "Mare Rouge", "index": 19 }, "geometry": { "type": "Point", "coordinates": [ 0.1165028, 49.5187307 ] } },
{ "type": "Feature", "properties": { "name": "Sacré Cœur", "index": 20 }, "geometry": { "type": "Point", "coordinates": [ 0.121253, 49.5155001 ] } },
{ "type": "Feature", "properties": { "name": "Mont Gaillard", "index": 21 }, "geometry": { "type": "Point", "coordinates": [ 0.11383, 49.5225722 ] } },
{ "type": "Feature", "properties": { "name": "Grand Hameau", "index": 22 }, "geometry": { "type": "Point", "coordinates": [ 0.1058796, 49.5299138 ] } },
{ "type": "Feature", "properties": { "name": "Parc jardin", "index": 23 }, "geometry": { "type": "Point", "coordinates": [ 0.19771753153084717, 49.545981616644426 ] } },
{ "type": "Feature", "properties": { "name": "Cité des Abbesses", "index": 24 }, "geometry": { "type": "Point", "coordinates": [ 0.18895825802009492, 49.54296276142347 ] } },
{ "type": "Feature", "properties": { "name": "Les Arts", "index": 25 }, "geometry": { "type": "Point", "coordinates": [ 0.18131364808063727, 49.53473941159127 ] } },
{ "type": "Feature", "properties": { "name": "Hôpital J.Monod", "index": 26 }, "geometry": { "type": "Point", "coordinates": [ 0.18620605955128464, 49.52678376925445 ] } },
{ "type": "Feature", "properties": { "name": "Beaulieu", "index": 27 }, "geometry": { "type": "Point", "coordinates": [ 0.18969788968922924, 49.51129621263856 ] } },
{ "type": "Feature", "properties": { "name": "Coeur historique", "index": 28 }, "geometry": { "type": "Point", "coordinates": [ 0.19540686701744586, 49.505017435895795 ] } },
{ "type": "Feature", "properties": { "name": "Soquence", "index": 29 }, "geometry": { "type": "Point", "coordinates": [ 0.17820554399024213, 49.50071073111027 ] } },
{ "type": "Feature", "properties": { "name": "Stade Océane", "index": 30 }, "geometry": { "type": "Point", "coordinates": [ 0.17127036713209604, 49.50093408993121 ] } },
{ "type": "Feature", "properties": { "name": "Graville", "index": 31 }, "geometry": { "type": "Point", "coordinates": [ 0.16161765325683325, 49.50008428890932 ] } },
{ "type": "Feature", "properties": { "name": "Jaurès", "index": 32 }, "geometry": { "type": "Point", "coordinates": [ 0.1520676698683207, 49.498874708323164 ] } },
{ "type": "Feature", "properties": { "name": "Parc F.Mitterand", "index": 33 }, "geometry": { "type": "Point", "coordinates": [ 0.1431070959285101, 49.49805446455351 ] } },
{ "type": "Feature", "properties": { "name": "Sainte-Marie", "index": 34 }, "geometry": { "type": "Point", "coordinates": [ 0.1363679647950527, 49.49765371874745 ] } },
{ "type": "Feature", "properties": { "name": "Les Docks", "index": 35 }, "geometry": { "type": "Point", "coordinates": [ 0.13379054914397404, 49.490039605214115 ] } },
{ "type": "Feature", "properties": { "name": "Marceau", "index": 36 }, "geometry": { "type": "Point", "coordinates": [ 0.13733620735176721, 49.48557447313201 ] } },
{ "type": "Feature", "properties": { "name": "Amiral Mouchez", "index": 37 }, "geometry": { "type": "Point", "coordinates": [ 0.14321432337014753, 49.487125588115276 ] } },
{ "type": "Feature", "properties": { "name": "Valmy", "index": 38 }, "geometry": { "type": "Point", "coordinates": [ 0.14521838380945776, 49.49128508264553 ] } },
{ "type": "Feature", "properties": { "name": "Vallée Béreult", "index": 39 }, "geometry": { "type": "Point", "coordinates": [ 0.15223045123667217, 49.493552575879555 ] } }
]
}
