{
"type": "FeatureCollection",
"crs": { "type": "name", "properties": { "name": "urn:ogc:def:crs:OGC:1.3:CRS84" } },
"features": [
{ "type": "Feature", "properties": { "name": "La Plage", "index": 0 }, "geometry": { "type": "Point", "coordinates": [ 0.0957612, 49.4941147 ] } },
{ "type": "Feature", "properties": { "name": "Saint-Roch", "index": 10 }, "geometry": { "type": "Point", "coordinates": [ 0.1013739, 49.4934824 ] } },
{ "type": "Feature", "properties": { "name": "Hôtel de Ville", "index": 9 }, "geometry": { "type": "Point", "coordinates": [ 0.1082816, 49.4933709 ] } },
{ "type": "Feature", "properties": { "name": "Palais de Justice", "index": 11 }, "geometry": { "type": "Point", "coordinates": [ 0.1179439, 49.4926107 ] } },
{ "type": "Feature", "properties": { "name": "Gares", "index": 12 }, "geometry": { "type": "Point", "coordinates": [ 0.1241161, 49.4924356 ] } },
{ "type": "Feature", "properties": { "name": "Université", "index": 7 }, "geometry": { "type": "Point", "coordinates": [ 0.127048, 49.4961896 ] } },
{ "type": "Feature", "properties": { "name": "Rond-Point", "index": 8 }, "geometry": { "type": "Point", "coordinates": [ 0.1294517, 49.4992676 ] } }
]
}
